City,Lat,Lng,Max Temp,Humidity,Cloudiness,Wind Speed,Country,Date
atuona,-9.8,-139.0333,298.48,76,44,8.1,PF,1658618853
narsaq,60.9167,-46.05,285.27,83,99,1.75,GL,1658618787
haines junction,60.7522,-137.5108,291.12,36,74,5.66,CA,1658618853
asau,46.4333,26.4,297.01,70,55,1.52,RO,1658618556
arraial do cabo,-22.9661,-42.0278,295.39,87,6,9.44,BR,1658618586
rong kwang,18.339,100.3174,296.02,98,100,0.6,TH,1658618854
luderitz,-26.6481,15.1594,287.69,65,0,8.84,NA,1658618854
mersing,2.4312,103.8405,296.1,100,40,2.57,MY,1658618854
vardo,70.3705,31.1107,283.14,93,75,2.57,NO,1658618642
barrow,71.2906,-156.7887,277.16,81,100,6.17,US,1658618855
rikitea,-23.1203,-134.9692,295.88,63,0,3.75,PF,1658618855
ushuaia,-54.8,-68.3,270.51,87,66,2.97,AR,1658618855
fort dodge,42.4975,-94.168,295.92,96,58,4.49,US,1658618856
tuktoyaktuk,69.4541,-133.0374,284.15,93,100,6.17,CA,1658618856
iqaluit,63.7506,-68.5145,282.0,87,100,1.54,CA,1658618856
kapaa,22.0752,-159.319,302.33,65,20,5.66,US,1658618576
butaritari,3.0707,172.7902,300.59,80,25,7.09,KI,1658618857
jamestown,42.097,-79.2353,299.74,62,93,4.05,US,1658618857
maragogi,-9.0122,-35.2225,297.1,83,28,5.56,BR,1658618857
punta arenas,-53.15,-70.9167,275.21,75,0,8.23,CL,1658618858
motygino,58.1831,94.7592,285.03,96,62,1.38,RU,1658618858
cherskiy,68.75,161.3,289.07,42,14,1.04,RU,1658618858
prince rupert,54.3161,-130.3201,289.2,82,75,3.6,CA,1658618571
gimli,50.6336,-96.9907,290.15,79,45,9.75,CA,1658618859
dhidhdhoo,6.8833,73.1,300.59,76,81,7.0,MV,1658618859
mayo,38.8876,-76.5119,307.66,70,0,2.06,US,1658618859
hay river,60.8156,-115.7999,300.14,36,52,5.14,CA,1658618860
alice springs,-23.7,133.8833,290.9,20,0,4.63,AU,1658618860
leningradskiy,69.3833,178.4167,274.64,94,100,3.01,RU,1658618860
lodja,-3.4833,23.4333,295.46,75,7,0.96,CD,1658618861
mahebourg,-20.4081,57.7,293.85,83,40,5.14,MU,1658618861
lavrentiya,65.5833,-171.0,279.02,89,100,5.19,RU,1658618703
nelson bay,-32.7167,152.15,287.1,97,26,3.58,AU,1658618788
sakaiminato,35.55,133.2333,298.14,83,75,0.51,JP,1658618862
kisangani,0.5167,25.2,294.36,97,100,1.1,CD,1658618862
carnarvon,-24.8667,113.6333,290.47,64,60,7.78,AU,1658618587
nikolskoye,59.7035,30.7861,291.37,98,62,1.97,RU,1658618862
vaini,-21.2,-175.2,297.24,73,20,5.14,TO,1658618863
busselton,-33.65,115.3333,283.58,69,86,4.51,AU,1658618863
new norfolk,-42.7826,147.0587,282.55,86,100,0.94,AU,1658618710
albany,42.6001,-73.9662,306.28,45,19,1.52,US,1658618548
mokhsogollokh,61.4681,128.9203,294.76,62,28,1.45,RU,1658618863
bambous virieux,-20.3428,57.7575,293.83,83,40,5.14,MU,1658618864
ludvika,60.1496,15.1878,286.04,93,100,1.37,SE,1658618864
mataura,-46.1927,168.8643,277.86,69,80,0.61,NZ,1658618864
cape town,-33.9258,18.4232,286.14,72,0,3.6,ZA,1658618864
saint andrews,34.0454,-81.1293,306.81,63,40,3.6,US,1658618865
tuatapere,-46.1333,167.6833,280.48,83,53,1.13,NZ,1658618865
makakilo city,21.3469,-158.0858,299.78,61,2,7.16,US,1658618865
sao filipe,14.8961,-24.4956,298.52,85,100,2.24,CV,1658618866
bredasdorp,-34.5322,20.0403,283.4,71,36,1.3,ZA,1658618866
beringovskiy,63.05,179.3167,280.43,80,100,5.62,RU,1658618866
japura,-0.3167,102.35,296.11,99,100,0.3,ID,1658618867
olafsvik,64.8945,-23.7142,284.02,85,38,4.14,IS,1658618867
sao joao da barra,-21.6403,-41.0511,295.53,83,5,7.39,BR,1658618867
son la,21.3167,103.9,292.93,98,25,0.28,VN,1658618596
chuy,-33.6971,-53.4616,289.76,89,79,3.11,UY,1658618868
bluff,-46.6,168.3333,278.04,82,43,2.24,NZ,1658618868
avarua,-21.2078,-159.775,295.35,70,97,9.27,CK,1658618868
wajir,1.7471,40.0573,295.7,66,79,8.11,KE,1658618869
groningen,53.25,6.75,289.27,83,25,3.09,NL,1658618869
yichang,30.7144,111.2847,298.08,92,25,0.35,CN,1658618869
beloha,-25.1667,45.05,291.85,73,11,2.03,MG,1658618870
kendari,-3.945,122.4989,295.78,91,76,1.26,ID,1658618870
hithadhoo,-0.6,73.0833,300.51,72,100,1.95,MV,1658618870
srednekolymsk,67.45,153.6833,291.64,34,1,6.38,RU,1658618871
saint anthony,45.0205,-93.218,299.2,73,0,6.69,US,1658618717
bratsk,56.1325,101.6142,287.42,95,45,1.73,RU,1658618871
santa rita,-7.1139,-34.9781,295.82,91,98,4.2,BR,1658618871
codrington,-38.2667,141.9667,282.74,93,5,2.82,AU,1658618872
koumac,-20.5667,164.2833,297.34,73,87,2.97,NC,1658618872
saskylakh,71.9167,114.0833,286.42,76,45,1.71,RU,1658618872
isiro,2.7739,27.616,292.66,98,100,0.46,CD,1658618872
mayumba,-3.432,10.6554,293.47,90,89,1.37,GA,1658618873
saint-philippe,-21.3585,55.7679,292.92,84,60,5.42,RE,1658618873
great yarmouth,52.6083,1.7305,294.29,75,90,4.16,GB,1658618873
khatanga,71.9667,102.5,286.79,76,13,5.79,RU,1658618780
sumenep,-7.0167,113.8667,298.16,82,99,3.06,ID,1658618874
provideniya,64.3833,-173.3,281.08,77,96,3.04,RU,1658618874
hobart,-42.8794,147.3294,282.74,94,75,0.45,AU,1658618782
east london,-33.0153,27.9116,287.51,65,64,9.71,ZA,1658618717
altagracia de orituco,9.8601,-66.3814,297.53,69,7,2.68,VE,1658618875
yellowknife,62.456,-114.3525,295.44,40,40,8.23,CA,1658618875
umm kaddadah,13.6017,26.6876,302.68,53,44,7.58,SD,1658618875
pires do rio,-17.2997,-48.2794,293.01,43,2,2.21,BR,1658618875
pisco,-13.7,-76.2167,289.18,82,100,1.03,PE,1658618590
le port,-20.9373,55.2919,293.29,74,43,2.66,RE,1658618876
saint george,37.1041,-113.5841,312.94,18,0,6.17,US,1658618876
maungatapere,-35.75,174.2,285.3,91,100,3.91,NZ,1658618877
hirara,24.8,125.2833,303.3,79,40,5.14,JP,1658618877
yinchuan,38.4681,106.2731,297.47,50,0,4.3,CN,1658618877
tezu,27.9167,96.1667,298.3,79,99,0.75,IN,1658618878
killorglin,52.1,-9.7833,289.27,91,93,3.5,IE,1658618878
amberley,39.2048,-84.428,304.23,63,0,2.06,US,1658618878
thompson,55.7435,-97.8558,292.24,48,75,6.17,CA,1658618879
havelock,34.8791,-76.9013,301.12,74,80,5.21,US,1658618738
dikson,73.5069,80.5464,282.33,79,82,4.57,RU,1658618879
caraquet,47.7941,-64.9386,299.45,61,56,3.27,CA,1658618879
ketchikan,55.3422,-131.6461,288.68,85,100,2.28,US,1658618664
hasaki,35.7333,140.8333,301.09,81,99,5.1,JP,1658618880
tarko-sale,64.9225,77.785,284.28,96,81,2.4,RU,1658618880
kieta,-6.2167,155.6333,302.19,69,4,2.47,PG,1658618881
klaksvik,62.2266,-6.589,283.66,91,98,8.59,FO,1658618881
anahuac,27.2333,-100.15,311.88,23,96,8.75,MX,1658618881
tazovskiy,67.4667,78.7,286.02,94,26,2.54,RU,1658618881
upernavik,72.7868,-56.1549,279.23,96,100,2.02,GL,1658618882
westerland,54.9079,8.3033,287.01,88,20,2.57,DE,1658618882
simao,22.7886,100.9748,290.45,98,62,0.83,CN,1658618882
axim,4.8699,-2.2405,297.14,81,51,3.31,GH,1658618850
burnie,-41.0667,145.9167,284.6,93,100,2.16,AU,1658618883
touros,-5.1989,-35.4608,297.73,85,44,6.86,BR,1658618883
fakel,57.6325,53.0252,289.04,84,45,2.29,RU,1658618883
marsa matruh,31.3525,27.2453,298.03,77,0,3.27,EG,1658618884
puerto ayora,-0.7393,-90.3518,294.57,88,78,2.68,EC,1658618884
podgornoye,51.735,39.1496,288.27,94,40,3.0,RU,1658618884
naze,28.3667,129.4833,301.66,69,100,0.33,JP,1658618885
los llanos de aridane,28.6585,-17.9182,294.01,88,100,4.12,ES,1658618885
bagdarin,54.4333,113.6,290.54,93,98,1.57,RU,1658618886
jumla,29.2747,82.1838,290.4,98,100,0.76,NP,1658618886
luau,-10.7073,22.2247,293.03,32,76,1.84,AO,1658618886
comodoro rivadavia,-45.8667,-67.5,274.07,93,100,1.54,AR,1658618886
ascension,30.2169,-90.9001,303.15,82,0,0.0,US,1658618887
hamilton,39.1834,-84.5333,307.71,42,29,3.47,US,1658618571
sao jose de ribamar,-2.5619,-44.0542,301.36,78,98,3.22,BR,1658618887
vila velha,-20.3297,-40.2925,296.12,88,40,1.54,BR,1658618887
noumea,-22.2763,166.4572,299.26,99,96,3.72,NC,1658618857
vagur,61.4732,-6.8119,283.56,92,100,10.77,FO,1658618888
hinton,53.4001,-117.5857,299.14,31,62,1.6,CA,1658618888
roma,43.2128,-75.4557,301.39,58,59,0.51,US,1658618888
ratnagiri,16.9833,73.3,299.14,83,100,4.47,IN,1658618889
lazaro cardenas,17.9583,-102.2,302.67,70,94,4.57,MX,1658618889
udomlya,57.8794,34.9925,288.9,85,17,2.38,RU,1658618889
ponta do sol,32.6667,-17.1,296.55,59,3,1.19,PT,1658618890
qaanaaq,77.484,-69.3632,276.12,99,100,0.26,GL,1658618890
rakitnoye,50.8389,35.8515,289.2,89,8,3.09,RU,1658618890
maldonado,-34.6667,-54.9167,288.83,93,97,2.53,UY,1658618891
victor harbor,-35.5667,138.6167,286.31,94,2,3.19,AU,1658618891
kruisfontein,-34.0033,24.7314,283.64,83,52,7.77,ZA,1658618713
hermanus,-34.4187,19.2345,285.02,68,66,2.06,ZA,1658618891
hilo,19.7297,-155.09,301.64,85,100,3.09,US,1658618681
mandiana,10.6333,-8.6833,295.56,94,69,1.97,GN,1658618892
taman,45.2117,36.7161,295.47,63,20,4.44,RU,1658618892
nemuro,43.3236,145.575,289.9,92,90,3.23,JP,1658618892
padang,-0.9492,100.3543,297.18,85,100,1.94,ID,1658618718
ostersund,63.1792,14.6357,283.03,71,88,0.58,SE,1658618893
mount isa,-20.7333,139.5,290.02,45,0,0.0,AU,1658618893
viedma,-40.8135,-62.9967,282.56,69,100,3.21,AR,1658618893
mehamn,71.0357,27.8492,284.1,93,100,9.77,NO,1658618894
waipawa,-41.4122,175.5153,281.97,77,100,3.14,NZ,1658618894
pangnirtung,66.1451,-65.7125,285.06,60,13,1.56,CA,1658618894
mbaiki,3.8678,17.9892,293.85,93,98,0.63,CF,1658618895
prozor,43.8222,17.6092,293.49,43,9,0.81,BA,1658618895
bilma,18.6853,12.9164,306.72,23,8,2.09,NE,1658618895
minab,27.1467,57.0801,305.33,74,95,1.03,IR,1658618799
ribeira grande,38.5167,-28.7,296.66,87,51,2.59,PT,1658618896
tasiilaq,65.6145,-37.6368,276.24,84,100,3.52,GL,1658618896
waitati,-45.75,170.5667,279.98,66,4,1.94,NZ,1658618896
longyearbyen,78.2186,15.6401,282.06,87,75,4.12,SJ,1658618896
chikitigarh,19.2,84.6167,299.67,86,93,0.88,IN,1658618897
castro,-24.7911,-50.0119,288.43,67,100,1.21,BR,1658618897
ola,59.5833,151.2833,286.01,79,100,7.28,RU,1658618897
at-bashi,41.1702,75.8106,288.59,42,2,0.27,KG,1658618898
port elizabeth,-33.918,25.5701,285.31,85,40,5.81,ZA,1658618898
sur,22.5667,59.5289,303.61,68,41,4.12,OM,1658618855
bethel,41.3712,-73.414,302.99,45,24,1.46,US,1658618898
taoudenni,22.6783,-3.9836,310.71,8,0,6.63,ML,1658618869
deputatskiy,69.3,139.9,285.4,59,36,2.88,RU,1658618899
saldanha,-33.0117,17.9442,281.18,68,0,9.37,ZA,1658618899
belaya gora,68.5333,146.4167,290.77,39,36,6.6,RU,1658618899
port alfred,-33.5906,26.891,286.49,73,80,9.53,ZA,1658618900
quatre cocos,-20.2078,57.7625,293.76,77,49,6.6,MU,1658618900
kudat,6.8837,116.8477,298.11,100,20,0.0,MY,1658618900
dunedin,-45.8742,170.5036,281.93,61,2,4.02,NZ,1658618633
medea,36.2642,2.7539,296.85,36,2,1.0,DZ,1658618866
nome,64.5011,-165.4064,282.19,87,100,6.69,US,1658618901
kaitangata,-46.2817,169.8464,278.13,69,46,1.04,NZ,1658618697
cabo san lucas,22.8909,-109.9124,298.99,91,100,4.12,MX,1658618747
shimanovsk,52.0,127.7,296.46,63,34,1.11,RU,1658618901
walvis bay,-22.9575,14.5053,285.68,87,0,4.12,NA,1658618902
kodiak,57.79,-152.4072,283.88,93,100,6.17,US,1658618902
kells,53.7264,-6.8792,289.13,94,100,5.56,IE,1658618902
sayyan,15.1718,44.3244,289.26,76,99,2.15,YE,1658618903
dingle,10.9995,122.6711,299.55,87,81,0.64,PH,1658618903
lebu,-37.6167,-73.65,284.12,93,100,2.49,CL,1658618903
the valley,18.217,-63.0578,300.07,75,3,8.5,AI,1658618704
jodhpur,26.2867,73.03,300.11,82,94,2.15,IN,1658618639
maarianhamina,60.0973,19.9348,287.07,82,0,3.09,AX,1658618904
hami,42.8,93.45,302.2,21,49,3.54,CN,1658618904
zaysan,47.4667,84.8667,290.21,45,50,3.32,KZ,1658618905
santa isabel do rio negro,-0.4139,-65.0192,296.68,97,99,0.53,BR,1658618905
namibe,-15.1961,12.1522,290.49,90,36,0.51,AO,1658618905
san juan,-31.5375,-68.5364,290.55,23,0,4.0,AR,1658618905
coahuayana,18.7333,-103.6833,303.75,64,99,2.59,MX,1658618906
mar del plata,-38.0023,-57.5575,285.51,91,100,2.05,AR,1658618718
puerto madero,14.7208,-92.4215,300.87,75,73,3.07,MX,1658618906
puerto escondido,15.85,-97.0667,303.61,58,75,2.06,MX,1658618906
kimbe,-5.5502,150.1429,302.14,69,13,1.9,PG,1658618907
praia da vitoria,38.7333,-27.0667,296.29,88,0,1.53,PT,1658618907
rocha,-34.4833,-54.3333,289.44,96,97,3.02,UY,1658618907
gagra,43.3283,40.2239,290.66,73,11,2.35,GE,1658618908
itarema,-2.9248,-39.9167,299.44,75,51,6.54,BR,1658618908
porto novo,6.4965,2.6036,299.05,85,100,3.24,BJ,1658618908
yabassi,4.457,9.9682,295.48,98,100,0.44,CM,1658618909
manaure,11.7751,-72.4445,301.46,66,6,10.64,CO,1658618909
santa maria,-29.6842,-53.8069,292.76,100,0,2.06,BR,1658618848
olinda,-8.0089,-34.8553,297.38,84,71,6.65,BR,1658618739
constitucion,-35.3333,-72.4167,285.47,88,100,0.74,CL,1658618756
korla,41.7597,86.1469,301.84,17,0,2.21,CN,1658618909
san quintin,30.4833,-115.95,295.17,66,22,4.23,MX,1658618910
sukhobuzimskoye,56.5,93.2728,284.88,88,32,1.17,RU,1658618910
xapuri,-10.6517,-68.5044,300.38,58,74,1.44,BR,1658618910
faanui,-16.4833,-151.75,299.51,73,10,6.07,PF,1658618911
windsor,42.3001,-83.0165,306.49,59,0,3.6,CA,1658618595
faya,18.3851,42.4509,289.44,76,100,7.86,SA,1658618911
kovernino,57.1253,43.8142,292.55,73,52,1.98,RU,1658618912
victoria,22.2855,114.1577,304.24,78,31,1.79,HK,1658618912
tura,25.5198,90.2201,296.02,99,100,1.97,IN,1658618912
roald,62.5833,6.1333,288.8,94,100,2.57,NO,1658618913
ouallam,14.3188,2.0866,306.04,43,43,4.23,NE,1658618913
salalah,17.0151,54.0924,298.2,94,75,3.09,OM,1658618702
najran,17.4924,44.1277,296.51,62,85,4.19,SA,1658618914
sakata,38.9167,139.855,297.25,78,75,1.03,JP,1658618914
clyde river,70.4692,-68.5914,279.78,75,100,0.53,CA,1658618914
oeiras,-7.0253,-42.1311,302.1,37,53,4.59,BR,1658618914
koslan,63.4564,48.8989,288.5,96,77,1.46,RU,1658618915
geraldton,-28.7667,114.6,282.38,81,40,2.57,AU,1658618779
lanivtsi,49.8633,26.0908,292.2,57,69,3.39,UA,1658618915
severo-kurilsk,50.6789,156.125,286.94,88,55,1.89,RU,1658618915
tiksi,71.6872,128.8694,282.51,78,31,2.76,RU,1658618916
linares,-35.85,-71.6,284.35,88,100,0.54,CL,1658618916
pendleton,45.6721,-118.7886,306.82,24,0,5.36,US,1658618916
ankpa,7.3706,7.6253,293.47,99,100,1.84,NG,1658618917
lakhimpur,27.95,80.7667,302.02,73,72,4.4,IN,1658618917
zhezkazgan,47.8043,67.7144,295.58,31,35,3.31,KZ,1658618917
baffa,34.4378,73.2194,297.13,89,95,0.6,PK,1658618917
tilichiki,60.4667,166.1,283.48,75,100,3.34,RU,1658618632
miraflores,19.2167,-98.8083,290.76,72,84,1.75,MX,1658618918
egvekinot,66.3167,-179.1667,278.67,68,100,2.86,RU,1658618918
soyo,-6.1349,12.3689,294.16,91,34,1.44,AO,1658618718
puerto narino,-3.7703,-70.3831,296.88,92,96,0.88,CO,1658618919
soto la marina,23.7667,-98.2167,305.25,40,12,8.57,MX,1658618919
biak,-0.9131,122.8766,297.48,85,57,2.37,ID,1658618919
bilibino,68.0546,166.4372,287.35,42,98,0.71,RU,1658618919
ylojarvi,61.5563,23.5961,288.1,94,100,1.54,FI,1658618920
pangai,-19.8,-174.35,296.88,66,98,8.72,TO,1658618920
airai,-8.9266,125.4092,285.92,75,65,1.08,TL,1658618920
mwingi,-0.9344,38.0601,289.2,80,25,2.42,KE,1658618921
risor,58.7206,9.2342,288.96,84,30,4.02,NO,1658618921
meulaboh,4.1363,96.1285,297.15,91,100,2.26,ID,1658618801
torbay,47.6666,-52.7314,297.58,78,20,5.66,CA,1658618921
grand gaube,-20.0064,57.6608,293.92,72,26,2.68,MU,1658618921
kabakovo,54.5369,56.1517,288.31,94,0,3.0,RU,1658618922
kaeo,-35.1,173.7833,287.77,91,100,8.58,NZ,1658618922
chokurdakh,70.6333,147.9167,288.17,44,84,5.28,RU,1658618922
batagay,67.6333,134.6333,288.5,91,100,1.92,RU,1658618923
volnovakha,47.601,37.4967,288.61,78,63,3.64,UA,1658618923
yambio,4.5721,28.3955,293.24,97,88,1.43,SS,1658618923
rio gallegos,-51.6226,-69.2181,269.96,87,16,4.78,AR,1658618924
ust-koksa,50.2696,85.6108,281.93,92,52,0.52,RU,1658618924
pevek,69.7008,170.3133,275.41,84,96,1.89,RU,1658618725
juneau,58.3019,-134.4197,287.71,93,100,7.72,US,1658618874
port lincoln,-34.7333,135.8667,286.3,72,75,7.02,AU,1658618924
ilulissat,69.2167,-51.1,276.98,98,100,1.14,GL,1658618925
emerald,-23.5333,148.1667,289.45,73,0,1.52,AU,1658618925
coihueco,-36.6167,-71.8333,282.56,100,100,1.03,CL,1658618925
abashiri,44.0213,144.2697,290.34,88,75,1.03,JP,1658618926
stornoway,58.2093,-6.3865,288.13,98,75,0.51,GB,1658618926
veselynove,47.3567,31.2349,293.63,48,0,1.49,UA,1658618926
bundaberg,-24.85,152.35,291.6,74,0,2.68,AU,1658618723
flinders,-34.5833,150.8552,286.51,95,10,2.68,AU,1658618927
sarangani,5.4033,125.4636,301.34,75,96,3.75,PH,1658618927
shenjiamen,29.9576,122.298,298.58,90,31,2.96,CN,1658618721
balkanabat,39.5108,54.3671,301.36,43,0,2.95,TM,1658618927
kitgum,3.2783,32.8867,293.71,80,91,0.81,UG,1658618928
daitari,21.1,85.75,296.63,94,100,1.31,IN,1658618928
inhambane,-23.865,35.3833,291.4,82,0,3.41,MZ,1658618928
springfield,37.2153,-93.2982,310.88,31,0,6.17,US,1658618853
pochutla,15.7432,-96.4661,303.05,68,100,0.17,MX,1658618929
jardim,-21.4803,-56.1381,297.87,37,100,1.79,BR,1658618761
carmo do rio claro,-20.9719,-46.1189,290.44,44,41,1.06,BR,1658618929
les cayes,18.2,-73.75,301.09,76,73,2.17,HT,1658618929
zelenogradsk,54.9589,20.4767,290.35,73,75,3.0,RU,1658618930
el alto,-4.2714,-81.2147,291.94,77,17,6.22,PE,1658618930
kathu,7.9178,98.3332,303.01,84,100,2.75,TH,1658618930
clermont,49.5,2.4167,292.43,66,88,1.67,FR,1658618931
villiers,-27.0303,28.6006,282.15,73,10,2.4,ZA,1658618931
talnakh,69.4865,88.3972,292.71,55,85,1.68,RU,1658618931
joao pinheiro,-17.7425,-46.1725,293.23,46,4,2.37,BR,1658618699
templin,53.1186,13.5022,287.09,86,0,2.17,DE,1658618932
seoul,37.5683,126.9778,297.91,88,75,3.6,KR,1658618308
nyurba,63.2842,118.3319,293.86,70,8,4.02,RU,1658618932
uyemskiy,64.4743,40.8524,290.18,100,100,1.0,RU,1658618933
hailar,49.2,119.7,291.51,83,100,2.25,CN,1658618933
zelenoborsk,61.4669,64.0333,282.23,74,45,1.88,RU,1658618933
bandarbeyla,9.4942,50.8122,297.61,82,25,13.37,SO,1658618654
erenhot,43.6475,111.9767,298.58,27,69,7.9,CN,1658618934
porbandar,21.6422,69.6093,300.45,82,100,9.14,IN,1658618934
kavaratti,10.5669,72.642,300.34,77,67,7.31,IN,1658618934
dudinka,69.4058,86.1778,292.94,63,46,5.01,RU,1658618935
micheweni,-4.9667,39.8333,296.47,77,4,5.99,TZ,1658618935
puerto baquerizo moreno,-0.9,-89.6,293.82,77,65,4.56,EC,1658618935
banda aceh,5.5577,95.3222,298.78,81,100,1.58,ID,1658618936
sao miguel do araguaia,-13.275,-50.1628,299.26,30,2,1.94,BR,1658618936
lagoa,39.05,-27.9833,295.69,90,21,4.44,PT,1658618721
galveston,29.3669,-94.9669,306.58,67,20,7.2,US,1658618936
sagua la grande,22.8067,-80.0756,303.7,72,94,5.66,CU,1658618937
aquiraz,-3.9014,-38.3911,299.36,81,65,5.1,BR,1658618937
millerovo,48.9226,40.3967,288.29,91,31,3.21,RU,1658618937
goderich,43.7501,-81.7165,299.33,65,46,4.63,CA,1658618858
bam,29.106,58.357,306.13,21,81,3.44,IR,1658618938
ostrovnoy,68.0531,39.5131,283.06,92,98,1.3,RU,1658618938
georgetown,5.4112,100.3354,298.65,95,20,2.06,MY,1658618720
benicarlo,40.4165,0.4271,299.76,77,0,2.62,ES,1658618670
belyy yar,53.6039,91.3903,286.09,94,0,2.0,RU,1658618938
san patricio,28.017,-97.5169,307.34,53,38,8.21,US,1658618939
saint-pierre,-21.3393,55.4781,293.1,76,100,0.0,RE,1658618939
russell,32.3502,-85.1999,304.68,58,0,0.0,US,1658618939
marzuq,14.4,46.4667,298.72,63,26,4.07,YE,1658618940
launceston,-41.45,147.1667,284.71,97,100,2.06,AU,1658618940
abapo,-18.8333,-63.4667,294.41,57,0,2.73,BO,1658618940
alofi,-19.0595,-169.9187,296.72,69,89,8.96,NU,1658618784
rishikesh,30.1167,78.3167,299.54,84,86,1.81,IN,1658618941
turukhansk,65.8167,87.9833,289.24,90,100,3.59,RU,1658618941
aklavik,68.2191,-135.0107,285.12,70,100,4.43,CA,1658618942
port hedland,-20.3167,118.5667,286.18,71,0,4.63,AU,1658618870
eyl,7.9803,49.8164,297.98,76,89,11.05,SO,1658618942
port macquarie,-31.4333,152.9167,288.65,77,84,3.32,AU,1658618942
nantucket,41.2835,-70.0995,297.65,86,22,7.31,US,1658618852
salym,60.0625,71.4789,281.78,90,91,2.73,RU,1658618943
churapcha,62.0025,132.4325,294.66,59,10,2.21,RU,1658618943
norman wells,65.282,-126.8329,290.17,82,75,2.06,CA,1658618943
avera,33.194,-82.5271,305.78,46,55,3.57,US,1658618944
poso,-1.3959,120.7524,298.28,82,69,2.22,ID,1658618944
cayenne,4.9333,-52.3333,301.53,1,40,1.54,GF,1658618944
borogontsy,62.6683,131.1683,294.49,61,3,1.9,RU,1658618945
barendrecht,51.85,4.5333,293.14,78,69,0.51,NL,1658618945
chulym,55.0997,80.9572,286.25,96,99,3.89,RU,1658618945
adet,11.2644,37.4888,286.51,92,90,1.37,ET,1658618946
mandalgovi,45.7625,106.2708,289.55,60,98,3.83,MN,1658618946
mecca,21.4267,39.8261,304.22,55,87,4.22,SA,1658618673
ancud,-41.8697,-73.8203,279.94,91,100,0.61,CL,1658618946
augusto correa,-1.0217,-46.635,298.18,86,92,1.9,BR,1658618946
romanovka,51.7443,42.7527,288.03,95,72,3.72,RU,1658618947
shelburne,44.0787,-80.2041,299.53,64,41,3.06,CA,1658618947
takhtamygda,54.1,123.5667,294.75,64,3,0.83,RU,1658618947
kapuskasing,49.4169,-82.4331,298.2,57,40,5.14,CA,1658618948
tsabong,-26.0217,22.401,286.23,39,4,4.84,BW,1658618948
samfya,-11.3649,29.5565,289.1,60,83,3.02,ZM,1658618948
siderno,38.2779,16.302,299.45,82,0,5.51,IT,1658618949
kysyl-syr,63.8986,122.7617,293.5,72,0,2.71,RU,1658618867
gananoque,44.3334,-76.1661,300.54,58,24,4.37,CA,1658618949
riga,57.0,24.0833,290.39,83,75,2.06,LV,1658618915
amarwara,22.3,79.1667,295.21,95,100,1.39,IN,1658618950
katihar,25.5333,87.5833,300.34,84,100,2.88,IN,1658618950
fairbanks,64.8378,-147.7164,292.16,44,75,0.89,US,1658618950
kahului,20.8947,-156.47,305.16,40,40,10.29,US,1658618951
carolina,18.3808,-65.9574,299.34,81,13,4.57,PR,1658618869
nanortalik,60.1432,-45.2371,279.83,91,96,4.82,GL,1658618951
troitskoye,52.9821,84.6757,286.16,89,86,2.53,RU,1658618951
akyab,20.15,92.9,299.25,86,100,3.64,MM,1658618952
sylvania,41.7189,-83.713,304.19,58,0,4.12,US,1658618893
saint-francois,46.4154,3.9054,290.75,88,0,1.54,FR,1658618952
clive,41.603,-93.7241,309.27,45,75,7.2,US,1658618952
bure,10.7,37.0667,286.88,99,97,0.47,ET,1658618953
san cristobal,7.7669,-72.225,298.25,68,11,1.07,VE,1658618953
aksarka,66.5606,67.7975,280.45,84,1,1.93,RU,1658618953
coquimbo,-29.9533,-71.3436,286.0,82,100,2.57,CL,1658618954
buraydah,26.326,43.975,306.4,15,36,1.79,SA,1658618954
pierre,44.3683,-100.351,308.74,41,0,6.69,US,1658618954
greifswald,54.1,13.3833,288.19,75,36,4.12,DE,1658618955
santa lucia,27.9117,-15.5407,297.12,56,24,1.18,ES,1658618955
isabela,6.7085,121.9711,299.8,80,99,1.13,PH,1658618757
visby,57.6409,18.296,289.29,94,100,3.09,SE,1658618955
lakselv,70.0513,24.9718,284.05,87,100,4.63,NO,1658618956
rudnyy,52.9594,63.1206,288.28,67,15,0.79,KZ,1658618956
belmonte,-15.8631,-38.8828,295.34,84,48,4.4,BR,1658618956
idaho falls,43.4666,-112.0341,306.2,20,0,5.14,US,1658618804
fortuna,40.5982,-124.1573,294.31,71,19,2.24,US,1658618957
emba,48.8264,58.1442,295.99,47,98,2.34,KZ,1658618957
lompoc,34.6391,-120.4579,295.29,73,0,7.2,US,1658618957
saint-joseph,-21.3667,55.6167,292.36,80,50,5.21,RE,1658618958
katsuura,35.1333,140.3,299.93,79,99,5.65,JP,1658618958
yeppoon,-23.1333,150.7333,290.03,73,0,3.37,AU,1658618958
praya,14.9215,-23.5087,299.45,83,75,2.57,CV,1658618959
balakhninskiy,58.0106,114.2769,295.1,75,21,1.27,RU,1658618959
danville,36.586,-79.395,307.61,44,0,2.06,US,1658618959
santa pola,38.1917,-0.5658,301.31,84,0,0.0,ES,1658618960
kavieng,-2.5744,150.7967,301.97,70,14,4.31,PG,1658618960
ternate,0.8,127.4,300.31,77,19,2.19,ID,1658618960
cidreira,-30.1811,-50.2056,290.0,97,57,4.37,BR,1658618960
vung tau,10.346,107.0843,299.48,85,53,3.91,VN,1658618961
ust-nera,64.5667,143.2,292.54,74,97,3.71,RU,1658618961
xuddur,4.1213,43.8894,294.19,78,66,9.19,SO,1658618961
birjand,32.8663,59.2211,299.41,31,0,3.09,IR,1658618962
key west,24.5557,-81.7826,307.15,64,20,6.17,US,1658618669
manavgat,36.7867,31.4431,299.72,31,0,4.56,TR,1658618962
port hardy,50.6996,-127.4199,290.25,72,40,6.69,CA,1658618963
atambua,-9.1061,124.8925,292.52,73,94,2.32,ID,1658618963
zaprudnya,56.5667,37.4333,289.67,76,1,1.92,RU,1658618963
hovd,48.0056,91.6419,288.02,49,4,0.76,MN,1658618963
tete,-16.1564,33.5867,288.2,100,20,1.54,MZ,1658618964
sabang,5.8933,95.3214,300.34,77,100,3.49,ID,1658618964
artigas,-30.4,-56.4667,292.99,89,99,3.58,UY,1658618786
riyadh,24.6877,46.7219,307.23,17,96,3.25,SA,1658618965
arlit,18.7369,7.3853,307.3,27,91,2.77,NE,1658618965
dakar,14.6937,-17.4441,299.64,85,99,9.38,SN,1658618790
elat,29.5581,34.9482,303.06,54,0,3.09,IL,1658618965
caravelas,-17.7125,-39.2481,294.59,76,0,2.97,BR,1658618852
tiznit,29.5833,-9.5,304.59,24,92,0.47,MA,1658618966
aranda de duero,41.6704,-3.6892,295.49,26,0,2.77,ES,1658618966
alekseyevka,50.6309,38.6903,288.91,92,50,3.29,RU,1658618966
matara,5.9485,80.5353,298.79,86,96,5.84,LK,1658618779
moyale,3.5167,39.0584,291.52,69,90,3.85,KE,1658618967
chifeng,42.2683,118.9636,293.04,73,0,1.13,CN,1658618863
otane,-39.8833,176.6333,280.93,80,100,1.76,NZ,1658618967
lisakovsk,52.5369,62.4936,290.84,65,0,0.86,KZ,1658618967
qeshm,26.9581,56.2719,305.09,85,72,5.56,IR,1658618968
brae,60.3964,-1.353,284.51,92,100,6.63,GB,1658618968
cobija,-11.0267,-68.7692,299.73,58,57,1.35,BO,1658618968
henties bay,-22.116,14.2845,286.28,88,0,2.72,NA,1658618969
manokwari,-0.8667,134.0833,299.63,79,96,2.11,ID,1658618969
berlevag,70.8578,29.0864,284.12,87,100,7.2,NO,1658618969
karmala,18.4167,75.2,295.98,85,100,4.76,IN,1658618969
la ronge,55.1001,-105.2842,292.27,59,75,1.03,CA,1658618720
jalu,29.0331,21.5482,299.69,57,0,5.9,LY,1658618970
torrington,41.8007,-73.1212,305.75,56,6,2.04,US,1658618858
karratha,-20.7377,116.8463,288.83,52,0,4.25,AU,1658618970
boke,10.9409,-14.2967,296.38,95,100,1.22,GN,1658618971
taksimo,56.3444,114.8794,292.94,80,32,0.23,RU,1658618971
vestmannaeyjar,63.4427,-20.2734,285.39,86,100,2.99,IS,1658618971
usinsk,65.9939,57.5281,280.8,92,30,4.78,RU,1658618972
farrukhnagar,17.0778,78.2011,294.99,94,100,4.62,IN,1658618972
abonnema,4.7084,6.7931,296.56,83,100,1.79,NG,1658618972
nuuk,64.1835,-51.7216,282.44,74,54,5.37,GL,1658618795
kemijarvi,66.7131,27.4306,282.62,88,32,2.55,FI,1658618973
pitimbu,-7.4706,-34.8086,297.48,85,89,6.6,BR,1658618973
terney,45.0503,136.6092,291.19,86,100,1.22,RU,1658618973
morovis,18.3258,-66.4066,300.03,86,19,3.69,PR,1658618973
jishou,28.3167,109.7167,298.46,95,70,0.55,CN,1658618974
lamar,33.6668,-95.5836,309.91,31,62,5.12,US,1658618974
santiago,-33.4569,-70.6483,288.45,65,0,2.06,CL,1658618538
jinka,5.65,36.65,292.95,52,92,1.3,ET,1658618974
tombouctou,20.0,-3.0,309.08,18,46,2.1,ML,1658618975
half moon bay,37.4636,-122.4286,304.21,70,75,9.26,US,1658618975
west odessa,31.8424,-102.4988,309.18,26,20,5.66,US,1658618976
mizdah,31.4451,12.9801,295.76,50,0,5.33,LY,1658618976
santa marta,11.2408,-74.199,300.34,81,83,5.93,CO,1658618976
yar-sale,66.8333,70.8333,282.46,89,89,8.81,RU,1658618921
nagua,19.3832,-69.8474,301.18,78,40,7.2,DO,1658618976
ojinaga,29.5667,-104.4167,312.91,30,0,4.63,MX,1658618977
sobolevo,54.4299,31.8996,289.42,85,36,3.31,RU,1658618977
makokou,0.5738,12.8642,294.7,92,96,0.76,GA,1658618977
hlotse,-28.8718,28.045,280.97,87,87,1.56,LS,1658618978
aykhal,66.0,111.5,291.53,71,35,7.63,RU,1658618978
bereda,43.2686,-7.5406,289.03,100,11,1.28,ES,1658618978
esperance,-33.8667,121.9,283.06,66,100,10.01,AU,1658618978
ahipara,-35.1667,173.1667,286.65,89,100,7.92,NZ,1658618979
namatanai,-3.6667,152.4333,301.87,66,8,2.13,PG,1658618979
singuilucan,19.9667,-98.5167,288.34,74,86,4.08,MX,1658618980
zmeinogorsk,51.1567,82.195,287.02,70,47,2.4,RU,1658618980
mareeba,-17.0,145.4333,294.53,78,0,1.3,AU,1658618980
bowen,-20.0167,148.2333,291.21,80,3,3.34,AU,1658618981
san pedro,14.35,121.0167,301.72,84,20,1.54,PH,1658618981
ormstown,45.1334,-73.9992,302.26,75,62,3.92,CA,1658618806
gigmoto,13.7796,124.39,301.71,83,90,2.25,PH,1658618981
aguimes,27.9054,-15.4461,299.63,88,31,5.14,ES,1658618982
mocuba,-16.8392,36.9856,289.7,91,8,0.77,MZ,1658618982
huarmey,-10.0681,-78.1522,290.58,85,64,3.84,PE,1658618982
kawalu,-7.3817,108.2082,295.14,97,98,0.84,ID,1658618983
lexington,37.9887,-84.4777,305.78,59,0,4.12,US,1658618837
muskegon,43.3,-86.1334,301.86,53,44,2.59,US,1658618983
mutis,6.2262,-77.4044,298.89,87,93,3.02,CO,1658618983
tommot,58.9564,126.2925,297.31,78,77,0.47,RU,1658618984
saint-augustin,51.226,-58.6502,291.07,83,77,2.37,CA,1658618984
tashtyp,52.7939,89.8983,283.56,94,62,0.99,RU,1658618984
butembo,0.15,29.2833,286.87,91,16,0.9,CD,1658618984
gravdal,68.1214,13.5031,284.52,77,58,3.09,NO,1658618985
sorong,-0.8833,131.25,298.43,91,99,4.72,ID,1658618985
sola,-13.8833,167.55,299.99,77,13,5.23,VU,1658618986
gat,31.61,34.7642,296.88,79,0,0.52,IL,1658618765
alyangula,-13.8483,136.4192,293.6,74,27,2.67,AU,1658618986
gillette,44.2911,-105.5022,301.66,28,40,3.13,US,1658618793
adrar,20.5022,-10.0711,308.13,28,93,4.9,MR,1658618986
bonavista,48.6499,-53.1147,291.49,90,52,2.34,CA,1658618987
manggar,-2.8833,108.2667,299.73,83,50,4.91,ID,1658618987
oranjemund,-28.55,16.4333,284.49,77,0,7.14,NA,1658618987
lilongwe,-13.9669,33.7873,288.26,94,0,2.57,MW,1658618988
paragominas,-2.9667,-47.4833,299.95,59,100,1.63,BR,1658618988
ilebo,-4.3167,20.5833,295.24,76,30,0.7,CD,1658618988
pergamino,-33.89,-60.5736,289.77,92,6,0.89,AR,1658618989
asasa,7.1,39.2,285.84,89,92,1.83,ET,1658618989
dawlatabad,36.4141,64.9053,304.52,23,0,3.72,AF,1658618989
husavik,66.0449,-17.3389,281.78,88,100,1.17,IS,1658618990
port-gentil,-0.7193,8.7815,297.13,78,100,2.57,GA,1658618990
ulladulla,-35.35,150.4667,285.51,81,22,1.2,AU,1658618990
sredneuralsk,56.9892,60.4666,283.79,68,93,2.54,RU,1658618990
wenatchee,47.4235,-120.3103,308.17,19,0,2.06,US,1658618850
isangel,-19.55,169.2667,299.9,77,8,5.59,VU,1658618991
kloulklubed,7.0419,134.2556,296.43,79,100,6.82,PW,1658618991
eirunepe,-6.6603,-69.8736,296.48,95,97,1.17,BR,1658618991
villa union,23.2,-106.2333,305.94,62,20,4.63,MX,1658618992
dwarka,22.2394,68.9678,300.81,84,100,9.84,IN,1658618992
skibbereen,51.55,-9.2667,289.88,84,96,8.62,IE,1658618992
roura,4.7263,-52.3274,301.46,78,40,1.54,GF,1658618993
moose factory,51.2585,-80.6094,296.0,41,81,3.99,CA,1658618993
paamiut,61.994,-49.6678,279.5,91,12,1.83,GL,1658618993
hambantota,6.1241,81.1185,299.45,80,93,8.57,LK,1658618994
linxia,35.6003,103.2064,289.16,64,0,1.93,CN,1658618994
sitka,57.0531,-135.33,287.09,88,100,4.12,US,1658618994
sovetskiy,61.3614,63.5842,282.76,70,65,1.9,RU,1658618995
bud,39.447,-86.1758,304.17,64,2,4.8,US,1658618995
thinadhoo,0.5333,72.9333,300.67,73,100,2.86,MV,1658618995
cap malheureux,-19.9842,57.6142,293.97,72,22,2.24,MU,1658618996
barcelona,41.3888,2.159,299.85,74,0,1.36,ES,1658618767
kozlovka,55.8428,48.2492,290.7,80,39,0.64,RU,1658618996
bisira,8.5196,-81.7115,290.1,96,100,1.25,PA,1658618996
surt,31.2089,16.5887,299.86,72,0,4.66,LY,1658618997
lorengau,-2.0226,147.2712,301.78,76,16,4.0,PG,1658618997
mora,11.0461,14.1401,297.81,71,35,1.51,CM,1658618997
souillac,-20.5167,57.5167,293.36,83,40,5.14,MU,1658618998
manta,-0.95,-80.7333,297.03,78,75,4.12,EC,1658618998
kashi,39.4547,75.9797,300.71,22,7,4.0,CN,1658618998
bay roberts,47.5999,-53.2648,293.37,86,6,4.37,CA,1658618999
providencia,28.7167,-111.5833,309.93,43,69,8.62,MX,1658618999
hurricane,37.1753,-113.2899,311.87,20,64,8.56,US,1658618846
puga,21.5833,-104.8167,299.19,78,40,0.0,MX,1658619000
isla aguada,18.7833,-91.4667,300.17,75,92,1.43,MX,1658619000
colares,38.7992,-9.4469,295.24,60,1,5.81,PT,1658619000
comarapa,-17.9,-64.4833,285.51,87,20,2.24,BO,1658619000
hazorasp,41.3194,61.0742,299.06,42,0,5.24,UZ,1658619001
sumy,50.9216,34.8003,290.05,87,5,2.63,UA,1658619001
bradford,53.7939,-1.7521,292.5,88,75,4.12,GB,1658618809
kolvereid,64.8655,11.6047,283.49,90,95,2.9,NO,1658619002
lubao,14.9167,120.55,302.99,82,98,1.78,PH,1658619002
paso de los toros,-32.8167,-56.5167,290.65,95,5,3.6,UY,1658619002
salinopolis,-0.6136,-47.3561,299.61,83,86,5.05,BR,1658619002
francisco sa,-16.4758,-43.4883,294.23,42,0,3.75,BR,1658619003
kuah,6.3265,99.8432,299.14,94,40,0.0,MY,1658619003
guerrero negro,27.9769,-114.0611,295.66,65,36,7.69,MX,1658619003
santa isabel,-23.3156,-46.2214,291.57,62,71,0.4,BR,1658619004
